{"locations": [
    {"manual_name": "Paris France",
     "Latitude": 48.8566, 
     "Longitude": 2.3522
    },
    {"manual_name": "London England",
     "Latitude": 51.5072, 
     "Longitude": 0.1276
    },
    {"manual_name": "Seattle WA",
     "Latitude": 47.6062, 
     "Longitude": -122.3321
    },
    {"manual_name": "San Francisco CA",
     "Latitude": 37.7749, 
     "Longitude": -122.4194
    },
    {"manual_name": "Austin TX",
     "Latitude": 30.2672, 
     "Longitude": -97.7431
    },
    {"manual_name": "Chicago IL",
     "Latitude": 41.8781, 
     "Longitude": -87.6298
    },
    {"manual_name": "New York NY",
     "Latitude": 40.7128, 
     "Longitude": -74.0060
    },
    {"manual_name": "Orlando FL",
     "Latitude": 28.5384, 
     "Longitude": -81.3789
    }
]
}
